[{"tipo": "Allestimenti", "denominazione": "Mostra Aeronautica Italiana, Milano, 1934", "longitude": 9.1734204, "tipo2": "Allestimenti", "address": "Milano (Palazzo dell'Arte al Parco)", "latitude": 45.47179670000001, "descrizione_prog": null, "id": 1, "impresa": null, "sigla": "AA"}, {"tipo": "Allestimenti", "denominazione": "Mostra Arte e Civilt\u00e0 Etrusca, Milano, 1955", "longitude": 9.1911918, "tipo2": "Allestimenti", "address": "Milano - Palazzo Reale", "latitude": 45.4631297, "descrizione_prog": null, "id": 2, "impresa": null, "sigla": "AAE"}, {"tipo": "Allestimenti", "denominazione": "Mostra Arte Italiana in collezioni U.S.A., Milano, 1960 ", "longitude": 9.1911918, "tipo2": "Allestimenti", "address": "Milano - Palazzo Reale", "latitude": 45.4631297, "descrizione_prog": null, "id": 3, "impresa": null, "sigla": "AAI"}, {"tipo": "Allestimenti", "denominazione": "Mostra Amedeo Modigliani, Milano, 1958", "longitude": 9.1911918, "tipo2": "Allestimenti", "address": "Milano - Palazzo Reale", "latitude": 45.4631297, "descrizione_prog": null, "id": 4, "impresa": null, "sigla": "AAM"}, {"tipo": "Allestimenti", "denominazione": "Mostra Attilio Rossi, Mantova, 1977", "longitude": 10.7951403, "tipo2": "Allestimenti", "address": "Mantova - Palazzo della Ragione", "latitude": 45.158309, "descrizione_prog": null, "id": 5, "impresa": null, "sigla": "AAR"}, {"tipo": "Allestimenti", "denominazione": "Progetto Personale Luciano Baldessari, Livorno, 1974", "longitude": 10.3131276, "tipo2": "Allestimenti", "address": "Livorno - Casa della Cultura", "latitude": 43.55208, "descrizione_prog": null, "id": 6, "impresa": null, "sigla": "ABL"}, {"tipo": "Allestimenti", "denominazione": "Mostra \"Il Cinquantanove\", Milano, 1959", "longitude": 9.1911918, "tipo2": "Allestimenti", "address": "Milano - Palazzo Reale (Sala delle Cariatidi)", "latitude": 45.4631297, "descrizione_prog": null, "id": 7, "impresa": null, "sigla": "AC"}, {"tipo": "Allestimenti", "denominazione": "Mostra Collezione Lercaro, Bologna, 1970", "longitude": 11.378309, "tipo2": "Allestimenti", "address": "Bologna - Villa San Giacomo", "latitude": 44.45785900000001, "descrizione_prog": null, "id": 8, "impresa": null, "sigla": "ACL"}, {"tipo": "Allestimenti", "denominazione": "Mostra Disegno Francese, Milano, 1960 ", "longitude": 9.1911918, "tipo2": "Allestimenti", "address": "Milano - Palazzo Reale", "latitude": 45.4631297, "descrizione_prog": null, "id": 9, "impresa": null, "sigla": "ADF"}, {"tipo": "Allestimenti", "denominazione": "Stand D.A.F., Giugno Genovese, Genova, 1933", "longitude": 8.946256, "tipo2": "Allestimenti", "address": "Genova - Giugno Genovese", "latitude": 44.4056499, "descrizione_prog": null, "id": 10, "impresa": null, "sigla": "ADG"}, {"tipo": "Allestimenti", "denominazione": "Stand D.A.F., Mostra Nazionale della Moda, Torino, 1933", "longitude": 7.6850525, "tipo2": "Allestimenti", "address": "Torino (Parco del Valentino) - I Mostra Nazionale della Moda", "latitude": 45.0522728, "descrizione_prog": null, "id": 11, "impresa": null, "sigla": "ADT"}, {"tipo": "Allestimenti", "denominazione": "Mostra Girolamo Romanino, Brescia, 1965", "longitude": 10.2214068, "tipo2": "Allestimenti", "address": "Brescia - Duomo Vecchio", "latitude": 45.5382797, "descrizione_prog": null, "id": 12, "impresa": null, "sigla": "AGR"}, {"tipo": "Allestimenti", "denominazione": "Mostra Giovanni Segantini, Arco di Trento, 1958", "longitude": 10.88698, "tipo2": "Allestimenti", "address": "Arco (TN) - Palazzo Marchetti dei Conti D'Arco", "latitude": 45.91712, "descrizione_prog": null, "id": 13, "impresa": null, "sigla": "AGS"}, {"tipo": "Allestimenti", "denominazione": "Personale Luciano Baldessari, Milano, Francoforte, Monaco, Trento, 1957-60", "longitude": 9.186516, "tipo2": "Allestimenti", "address": "Milano - Galleria Schettini, via Brera Francoforte (Germania) - Stadelschule Monaco (Germania) - Die Neue Sammlung Trento - Universit\u00e0 Popolare Trentina", "latitude": 45.4654542, "descrizione_prog": null, "id": 14, "impresa": null, "sigla": "ALB"}, {"tipo": "Allestimenti", "denominazione": "Mostra Lucio Fontana, Milano, 1972 ", "longitude": 9.1911918, "tipo2": "Allestimenti", "address": "Milano - Palazzo Reale", "latitude": 45.4631297, "descrizione_prog": null, "id": 15, "impresa": null, "sigla": "ALF"}, {"tipo": "Allestimenti", "denominazione": "Sala Mescita Vini Italiani, Expo di Parigi, 1937 ", "longitude": 2.3522219, "tipo2": "Allestimenti", "address": "Parigi (Francia) - Esposizione Internazionale", "latitude": 48.856614, "descrizione_prog": null, "id": 16, "impresa": null, "sigla": "AMV"}, {"tipo": "Allestimenti", "denominazione": "Mostra Premio Marzotto, Milano, 1954 ", "longitude": 9.1911918, "tipo2": "Allestimenti", "address": "Milano - Palazzo Reale (Sala delle Cariatidi)", "latitude": 45.4631297, "descrizione_prog": null, "id": 17, "impresa": null, "sigla": "APM"}, {"tipo": "Allestimenti", "denominazione": "Progetto Mostra Ricerca dell'Identit\u00e0, Milano, 1974", "longitude": 9.1911918, "tipo2": "Allestimenti", "address": "Milano - Palazzo Reale", "latitude": 45.4631297, "descrizione_prog": null, "id": 18, "impresa": null, "sigla": "ARI"}, {"tipo": "Allestimenti", "denominazione": "Mostra Risorgimento Mantovano, Mantova, 1952", "longitude": 10.7880065, "tipo2": "Allestimenti", "address": "Mantova - Casa del Mantegna", "latitude": 45.1513195, "descrizione_prog": null, "id": 19, "impresa": null, "sigla": "ARM"}, {"tipo": "Allestimenti", "denominazione": "Stand Siemens, Fiera Internazionale di Milano, 1956-57, 1961", "longitude": 9.1605538, "tipo2": "Allestimenti", "address": "Milano - Fiera Internazionale", "latitude": 45.4805467, "descrizione_prog": null, "id": 20, "impresa": null, "sigla": "AS"}, {"tipo": "Allestimenti", "denominazione": "Mostra Rembrandt e il 600 Olandese, Milano, 1954", "longitude": 9.1911918, "tipo2": "Allestimenti", "address": "Milano - Palazzo Reale", "latitude": 45.4631297, "descrizione_prog": null, "id": 21, "impresa": null, "sigla": "ASO"}, {"tipo": "Allestimenti", "denominazione": "Mostra Nazionale dello Sport, Milano, 1935", "longitude": 9.1734204, "tipo2": "Allestimenti", "address": "Milano - Palazzo dell'Arte al Parco", "latitude": 45.47179670000001, "descrizione_prog": null, "id": 22, "impresa": null, "sigla": "ASP"}, {"tipo": "Allestimenti", "denominazione": "Mostra della Seta, Esposizione Voltiana, Como, 1927", "longitude": 9.064551699999999, "tipo2": "Allestimenti", "address": "Como (Villa Olmo) - Esposizione Voltiana", "latitude": 45.8176433, "descrizione_prog": null, "id": 23, "impresa": null, "sigla": "ASV"}, {"tipo": "Allestimenti", "denominazione": "Stand D.A.F., IV Triennale di Monza, 1930", "longitude": 9.273921099999999, "tipo2": "Allestimenti", "address": "Monza (Villa Reale) - Esposizione Internazionale delle Art decorative e industriali e dell'Architettura moderna", "latitude": 45.5933819, "descrizione_prog": null, "id": 24, "impresa": null, "sigla": "AT4"}, {"tipo": "Allestimenti", "denominazione": "Salone dei Tessuti, V Triennale di Milano, 1933", "longitude": 9.1734204, "tipo2": "Allestimenti", "address": "Milano (Palazzo dell'Arte al Parco) - Esposizione Internazionale delle Art decorative e industriali e dell'Architettura moderna", "latitude": 45.47179670000001, "descrizione_prog": null, "id": 25, "impresa": null, "sigla": "AT5"}, {"tipo": "Allestimenti", "denominazione": "Sezione Tessili, VI Triennale di Milano, 1936", "longitude": 9.1734204, "tipo2": "Allestimenti", "address": "Milano (Palazzo dell'Arte al Parco) - Esposizione Internazionale delle Art decorative e industriali e dell'Architettura moderna", "latitude": 45.47179670000001, "descrizione_prog": null, "id": 26, "impresa": null, "sigla": "AT6"}, {"tipo": "Allestimenti", "denominazione": "Atrio, Scalone d'Onore e Vestibolo superiore, IX Triennale di Milano, 1951", "longitude": 9.1734204, "tipo2": "Allestimenti", "address": "Milano (Palazzo dell'Arte al Parco) - Esposizione Internazionale delle Art decorative e industriali e dell'Architettura moderna", "latitude": 45.47179670000001, "descrizione_prog": null, "id": 27, "impresa": null, "sigla": "AT9"}, {"tipo": "Allestimenti", "denominazione": "Teatro della Moda, Fiera Internazionale di Milano, 1928", "longitude": 9.1605538, "tipo2": "Allestimenti", "address": "Milano - IX Fiera Internazionale (Padiglione della Moda, Arch. Gio Ponti 1927)", "latitude": 45.4805467, "descrizione_prog": null, "id": 28, "impresa": null, "sigla": "ATM"}, {"tipo": "Allestimenti", "denominazione": "Stand S.I.V., Fiera Internazionale di Milano, 1964 ", "longitude": 9.1605538, "tipo2": "Allestimenti", "address": "Milano - Fiera Internazionale", "latitude": 45.4805467, "descrizione_prog": null, "id": 29, "impresa": null, "sigla": "AV"}, {"tipo": "Allestimenti", "denominazione": "Mostra Van Gogh, Milano, 1952", "longitude": 9.1911918, "tipo2": "Allestimenti", "address": "Milano - Palazzo Reale", "latitude": 45.4631297, "descrizione_prog": null, "id": 30, "impresa": null, "sigla": "AVG"}, {"tipo": "Architettura/Case d'abitazione", "denominazione": "Progetto Casa in via Cadibona, Milano, 1933-34", "longitude": 9.2267744, "tipo2": "Abitazioni e condomini ", "address": "Milano - via Cadibona", "latitude": 45.4536242, "descrizione_prog": null, "id": 31, "impresa": null, "sigla": "CC"}, {"tipo": "Architettura/Case d'abitazione", "denominazione": "Progetto Casa in via Fulcorina, Milano, 1934-35", "longitude": 9.183005, "tipo2": "Abitazioni e condomini ", "address": "Milano - via Santa Maria Fulcorina", "latitude": 45.4642804, "descrizione_prog": null, "id": 32, "impresa": null, "sigla": "CF"}, {"tipo": "Architettura/Case d'abitazione", "denominazione": "Grattacielo Hansaviertel, Berlino, 1954-55, 1956-58 ", "longitude": 13.4060912, "tipo2": "Abitazioni e condomini ", "address": "Berlino (Germania) - Esposizione Internazionale dell'edilizia 1957", "latitude": 52.519171, "descrizione_prog": null, "id": 33, "impresa": null, "sigla": "CH"}, {"tipo": "Architettura/Case d'abitazione", "denominazione": "Case INA a Brescia, 1958", "longitude": 10.2755113, "tipo2": "Abitazioni e condomini ", "address": "Brescia - Ghedi, Calcinato, Bienno", "latitude": 45.406043, "descrizione_prog": null, "id": 34, "impresa": null, "sigla": "CIB"}, {"tipo": "Architettura/Case d'abitazione", "denominazione": "Case INA a Porto Ceresio, 1958", "longitude": 8.9090724, "tipo2": "Abitazioni e condomini ", "address": "Porto Ceresio (VA)", "latitude": 45.9047458, "descrizione_prog": null, "id": 35, "impresa": null, "sigla": "CIC"}, {"tipo": "Architettura/Case d'abitazione", "denominazione": "Case INA a Pavia, 1958-62", "longitude": 9.313989, "tipo2": "Abitazioni e condomini ", "address": "Pavia - Belgioioso, Linarolo, Salimbene", "latitude": 45.1596663, "descrizione_prog": null, "id": 36, "impresa": null, "sigla": "CIP"}, {"tipo": "Architettura/Case d'abitazione", "denominazione": "Case INA a Sale, 1958", "longitude": 8.8087191, "tipo2": "Abitazioni e condomini ", "address": "Sale (AL)", "latitude": 44.9853971, "descrizione_prog": null, "id": 37, "impresa": null, "sigla": "CIS"}, {"tipo": "Architettura/Case d'abitazione", "denominazione": "Casa Jannitto, Montagano, 1968", "longitude": 14.670443, "tipo2": "Abitazioni e condomini ", "address": "Montagano (CB)", "latitude": 41.65525, "descrizione_prog": null, "id": 38, "impresa": null, "sigla": "CJ"}, {"tipo": "Architettura/Case d'abitazione", "denominazione": "Lazzaretto Mariani, Eupilio, 1959 ", "longitude": 9.2642612, "tipo2": "Abitazioni e condomini ", "address": "Eupilio (CO) - Frazione Carella", "latitude": 45.8159584, "descrizione_prog": null, "id": 39, "impresa": null, "sigla": "CLM"}, {"tipo": "Architettura/Case d'abitazione", "denominazione": "Casa Mariani, Eupilio, 1938-39", "longitude": 9.2642612, "tipo2": "Abitazioni e condomini ", "address": "Eupilio (CO) - Frazione Corneno", "latitude": 45.8159584, "descrizione_prog": null, "id": 40, "impresa": null, "sigla": "CM"}, {"tipo": "Architettura/Case d'abitazione", "denominazione": "Progetto Casa in via Maffei, Milano, 1935", "longitude": 9.2078572, "tipo2": "Abitazioni e condomini ", "address": "Milano - via Maffei", "latitude": 45.4575276, "descrizione_prog": null, "id": 41, "impresa": null, "sigla": "CMF"}, {"tipo": "Architettura/Case d'abitazione", "denominazione": "Condominio Milano, Rovereto, 1960-61", "longitude": 11.0403114, "tipo2": "Abitazioni e condomini ", "address": "Rovereto (TN) - via Paoli 33", "latitude": 45.8922631, "descrizione_prog": null, "id": 42, "impresa": null, "sigla": "CMI"}, {"tipo": "Architettura/Case d'abitazione", "denominazione": "Casa in via Pancaldo, Milano, 1934-36", "longitude": 9.209486799999999, "tipo2": "Abitazioni e condomini ", "address": "Milano - via Pancaldo 1/3 (angolo Viale Regina Giovanna)", "latitude": 45.4757697, "descrizione_prog": null, "id": 43, "impresa": null, "sigla": "CP"}, {"tipo": "Architettura/Case d'abitazione", "denominazione": "Progetto Casa in via Roma, Trento, 1969", "longitude": 11.1198528, "tipo2": "Abitazioni e condomini ", "address": "Trento - via Roma", "latitude": 46.0695443, "descrizione_prog": null, "id": 44, "impresa": null, "sigla": "CR"}, {"tipo": "Architettura/Case d'abitazione", "denominazione": "\"Casin di Strii\", Eupilio, 1959", "longitude": 9.2642612, "tipo2": "Abitazioni e condomini ", "address": "Eupilio (CO) - Frazione Carella", "latitude": 45.8159584, "descrizione_prog": null, "id": 45, "impresa": null, "sigla": "CS"}, {"tipo": "Architettura/Case d'abitazione", "denominazione": "Casa Trutmann, Como, 1956-57", "longitude": 9.0851765, "tipo2": "Abitazioni e condomini ", "address": "Como", "latitude": 45.8080597, "descrizione_prog": null, "id": 46, "impresa": null, "sigla": "CT"}, {"tipo": "Architettura/Case d'abitazione", "denominazione": "Casette prefabbricate, X Triennale di Milano, 1954 ", "longitude": 9.1734204, "tipo2": "Abitazioni e condomini ", "address": "Milano - Palazzo dell'Arte - Esposizione Internazionale delle Arti decorative e industriali moderne e dell'Architettura moderna", "latitude": 45.47179670000001, "descrizione_prog": null, "id": 47, "impresa": null, "sigla": "CTX"}, {"tipo": "Architettura/Case d'abitazione", "denominazione": "Casa a Vigevano, 1962-64", "longitude": 8.8511156, "tipo2": "Abitazioni e condomini ", "address": "Vigevano (MI) - via Curiel", "latitude": 45.3080612, "descrizione_prog": null, "id": 48, "impresa": null, "sigla": "CV"}, {"tipo": "Architettura/Case d'abitazione", "denominazione": "Condominio Venezia, Rovereto, 1961-62", "longitude": 11.03932, "tipo2": "Abitazioni e condomini ", "address": "Rovereto (TN) - Corso Rosmini 53", "latitude": 45.89109999999999, "descrizione_prog": null, "id": 49, "impresa": null, "sigla": "CVE"}, {"tipo": "Architettura/Case d'abitazione", "denominazione": "Progetto Grattacielo in via Modrone, Milano, 1937", "longitude": 9.1995388, "tipo2": "Abitazioni e condomini ", "address": "Milano - via Umberto Visconti di Modrone (gi\u00e0 via San Damiano)", "latitude": 45.4637994, "descrizione_prog": null, "id": 50, "impresa": null, "sigla": "CVM"}, {"tipo": "Architettura/Case d'abitazione", "denominazione": "Casa in via Pisani, Milano, 1937-38", "longitude": 9.2003635, "tipo2": "Abitazioni e condomini ", "address": "Milano - via Vittor Pisani", "latitude": 45.4820297, "descrizione_prog": null, "id": 51, "impresa": null, "sigla": "CVP"}, {"tipo": "Architettura/Edifici pubblici", "denominazione": "Progetto Palazzo E42, Roma, 1937 ", "longitude": 12.4607737, "tipo2": "Edifici per la cultura e lo spettacolo ", "address": "Roma - Quartiere EUR", "latitude": 41.9015141, "descrizione_prog": null, "id": 52, "impresa": null, "sigla": "E42"}, {"tipo": "Architettura/Edifici pubblici", "denominazione": "Progetto Albergo Domus, Stresa, 1958-59", "longitude": 8.5258667, "tipo2": "Edifici e impianti sportivi, ricreativi e ricettivi", "address": "Stresa (NO)", "latitude": 45.8882031, "descrizione_prog": null, "id": 53, "impresa": null, "sigla": "EAD"}, {"tipo": "Architettura/Edifici pubblici", "denominazione": "Progetto \"Aeroporto Forlanini\", Taliedo, 1932-33", "longitude": 9.2476874, "tipo2": "Infrastrutture e impianti ", "address": "Taliedo (MI)", "latitude": 45.4438465, "descrizione_prog": null, "id": 54, "impresa": null, "sigla": "EAE"}, {"tipo": "Architettura/Edifici pubblici", "denominazione": "Autocentro Fiat, Riazzino, Locarno, 1968-69, 1970-73, 1981-82 ", "longitude": 8.8971378, "tipo2": "Edifici per uffici, commerciali, industriali e produttivi ", "address": "Riazzino - Locarno (Svizzera)", "latitude": 46.1746352, "descrizione_prog": null, "id": 55, "impresa": null, "sigla": "EAF"}, {"tipo": "Architettura/Edifici pubblici", "denominazione": "Progetto Galleria d'Arte Moderna, Milano, 1936", "longitude": 9.1995921, "tipo2": "Edifici per la cultura e lo spettacolo ", "address": "Milano - via Palestro", "latitude": 45.4730177, "descrizione_prog": null, "id": 56, "impresa": null, "sigla": "EAM"}, {"tipo": "Architettura/Edifici pubblici", "denominazione": "Progetto Azienda di Turismo, Rovereto, 1965-67", "longitude": 11.0390078, "tipo2": "Edifici per uffici, commerciali, industriali e produttivi ", "address": "Rovereto (TN) - Corso Rosmini", "latitude": 45.8909429, "descrizione_prog": null, "id": 57, "impresa": null, "sigla": "EAT"}, {"tipo": "Architettura/Edifici pubblici", "denominazione": "Breda (piccole opere), Sesto San Giovanni, Saronno, 1955-57 ", "longitude": 9.2256875, "tipo2": "Edifici per uffici, commerciali, industriali e produttivi ", "address": "Sesto San Giovanni (MI) - Saronno", "latitude": 45.5328245, "descrizione_prog": null, "id": 58, "impresa": null, "sigla": "EBR"}, {"tipo": "Architettura/Edifici pubblici", "denominazione": "Progetto Palazzo per uffici Breda, Sesto San Giovanni, 1936", "longitude": 9.2256875, "tipo2": "Edifici per uffici, commerciali, industriali e produttivi ", "address": "Sesto San Giovanni (MI)", "latitude": 45.5328245, "descrizione_prog": null, "id": 59, "impresa": null, "sigla": "EBS"}, {"tipo": "Architettura/Edifici pubblici", "denominazione": "Progetto Casa di Cura/Albergo, San Remo, 1933", "longitude": 7.7760567, "tipo2": "Edifici per la salute e l\u2019assistenza sociale ", "address": "San Remo (IM)/Bordighera", "latitude": 43.81596709999999, "descrizione_prog": null, "id": 60, "impresa": null, "sigla": "ECC"}, {"tipo": "Architettura/Edifici pubblici", "denominazione": "Centrale Elettrica San Floriano, 1954, 1955", "longitude": 11.2410022, "tipo2": "Infrastrutture e impianti ", "address": "San Floriano (TN)", "latitude": 46.2842108, "descrizione_prog": null, "id": 61, "impresa": null, "sigla": "ECE"}, {"tipo": "Architettura/Edifici pubblici", "denominazione": "Progetto Chiesa di San Marco, Rovereto, 1933-34, 1939 ", "longitude": 11.005644, "tipo2": "Edifici per il culto e tombe", "address": "Rovereto (TN) - Piazza San Marco", "latitude": 45.844062, "descrizione_prog": null, "id": 62, "impresa": null, "sigla": "ECH"}, {"tipo": "Architettura/Edifici pubblici", "denominazione": "Palazzo per uffici D.A.F., Milano, 1931-32, 1937-38  ", "longitude": 9.1494942, "tipo2": "Edifici per uffici, commerciali, industriali e produttivi ", "address": "Milano - Piazzetta De Angeli", "latitude": 45.4665024, "descrizione_prog": null, "id": 63, "impresa": null, "sigla": "EDF"}, {"tipo": "Architettura/Edifici pubblici", "denominazione": "Complesso industriale Italcima, Milano, 1932-39 ", "longitude": 9.1819095, "tipo2": "Edifici per uffici, commerciali, industriali e produttivi ", "address": "Milano - via Legnone 4", "latitude": 45.49820589999999, "descrizione_prog": null, "id": 64, "impresa": null, "sigla": "EIT"}, {"tipo": "Architettura/Edifici pubblici", "denominazione": "Progetto Night-Club \"El Coche\", Brione, Locarno, 1968", "longitude": 8.7904682, "tipo2": "Edifici e impianti sportivi, ricreativi e ricettivi", "address": "Brione - Locarno (Svizzera)", "latitude": 46.2963928, "descrizione_prog": null, "id": 65, "impresa": null, "sigla": "ELC"}, {"tipo": "Architettura/Edifici pubblici", "denominazione": "Ristorante \"Los Gatos\", Brione, Locarno, 1957", "longitude": 8.7904682, "tipo2": "Edifici e impianti sportivi, ricreativi e ricettivi", "address": "Brione - Locarno (Svizzera)", "latitude": 46.2963928, "descrizione_prog": null, "id": 66, "impresa": null, "sigla": "ELG"}, {"tipo": "Architettura/Edifici pubblici", "denominazione": "Palazzo per uffici ELV, Rovereto, 1963-64", "longitude": 11.0401399, "tipo2": "Edifici per uffici, commerciali, industriali e produttivi ", "address": "Rovereto (TN)", "latitude": 45.89096, "descrizione_prog": null, "id": 67, "impresa": null, "sigla": "ELV"}, {"tipo": "Architettura/Edifici pubblici", "denominazione": "Mercato Coperto, Crema, 1952", "longitude": 9.6824841, "tipo2": "Edifici per uffici, commerciali, industriali e produttivi ", "address": "Crema (CR)", "latitude": 45.3643375, "descrizione_prog": null, "id": 68, "impresa": null, "sigla": "EMC"}, {"tipo": "Architettura/Edifici pubblici", "denominazione": "Progetto Magazzini Dogana, Milano, 1931-33 ", "longitude": 9.1892851, "tipo2": "Edifici per uffici, commerciali, industriali e produttivi ", "address": "Milano - via Dogana", "latitude": 45.4632991, "descrizione_prog": null, "id": 69, "impresa": null, "sigla": "EMD"}, {"tipo": "Architettura/Edifici pubblici", "denominazione": "Progetto Museo Studi Futuristi, Rovereto, 1981-82", "longitude": 11.03679, "tipo2": "Edifici per la cultura e lo spettacolo ", "address": "Rovereto (TN) - via Vannetti", "latitude": 45.8899047, "descrizione_prog": null, "id": 70, "impresa": null, "sigla": "EMF"}, {"tipo": "Architettura/Edifici pubblici", "denominazione": "Casa della Madre e del Bambino, Brescia, 1935-37 ", "longitude": 10.2077632, "tipo2": "Edifici per la salute e l\u2019assistenza sociale ", "address": "Brescia - vie Franchi e Marchetti", "latitude": 45.5415141, "descrizione_prog": null, "id": 71, "impresa": null, "sigla": "ESB"}, {"tipo": "Architettura/Edifici pubblici", "denominazione": "Istituto Tecnico F.lli Fontana, Rovereto, 1962-66, 1967-1973", "longitude": 11.0413071, "tipo2": "Scuole ", "address": "Rovereto (TN) - via San Giovanni Bosco", "latitude": 45.89349319999999, "descrizione_prog": null, "id": 72, "impresa": null, "sigla": "ESF"}, {"tipo": "Architettura/Edifici pubblici", "denominazione": "Progetto Centro di Assistenza Materna e Infantile, Lodi, 1932", "longitude": -83.8260884, "tipo2": "Edifici per la salute e l\u2019assistenza sociale ", "address": "Lodi (MI)", "latitude": 42.2082681, "descrizione_prog": null, "id": 73, "impresa": null, "sigla": "ESL"}, {"tipo": "Architettura/Edifici pubblici", "denominazione": "Centro di Assistenza Materna e Infantile, Mortara, 1932-33 ", "longitude": 8.7380708, "tipo2": "Edifici per la salute e l\u2019assistenza sociale ", "address": "Mortara (PV)", "latitude": 45.2515328, "descrizione_prog": null, "id": 74, "impresa": null, "sigla": "ESM"}, {"tipo": "Architettura/Edifici pubblici", "denominazione": "Casa della Madre e del Bambino, Roma, 1935-37 ", "longitude": 12.4107902, "tipo2": "Edifici per la salute e l\u2019assistenza sociale ", "address": "Roma - via Cassia Vecchia", "latitude": 41.9880596, "descrizione_prog": null, "id": 75, "impresa": null, "sigla": "ESR"}, {"tipo": "Architettura/Edifici pubblici", "denominazione": "Progetto Teatro Regio, Torino, 1937 ", "longitude": 7.6784897, "tipo2": "Edifici per la cultura e lo spettacolo ", "address": "Torino", "latitude": 45.0629022, "descrizione_prog": null, "id": 77, "impresa": null, "sigla": "ETR"}, {"tipo": "Interni", "denominazione": "Padiglione 19, Fiera Internazionale di Milano, 1957", "longitude": 9.1605538, "tipo2": "Interni", "address": "Milano - Fiera Internazionale", "latitude": 45.4805467, "descrizione_prog": null, "id": 78, "impresa": null, "sigla": "I19"}, {"tipo": "Interni", "denominazione": "Ristorante self-service Alma Products, New-York, 1941 ", "longitude": -73.9841586, "tipo2": "Interni", "address": "New York (U.S.A.) - 103 West 42 nd. St.", "latitude": 40.7548819999999, "descrizione_prog": null, "id": 79, "impresa": null, "sigla": "IAP"}, {"tipo": "Interni", "denominazione": "Istituto di Bellezza \"Dora Bruschi\", Milano, 1952-53 ", "longitude": 9.1953222, "tipo2": "Interni", "address": "Milano - via Montenapoleone 27", "latitude": 45.46810869999999, "descrizione_prog": null, "id": 80, "impresa": null, "sigla": "IB"}, {"tipo": "Interni", "denominazione": "Appartamento Bernardi, Venezia, 1973", "longitude": 12.3207328, "tipo2": "Interni", "address": "Venezia - Campo San Basilio", "latitude": 45.4313205, "descrizione_prog": null, "id": 81, "impresa": null, "sigla": "IBD"}, {"tipo": "Interni", "denominazione": "Appartamento Bertagnolli, Milano, 1977 ", "longitude": 9.1892209, "tipo2": "Interni", "address": "Milano - Via Mercalli 11", "latitude": 45.4554831, "descrizione_prog": null, "id": 82, "impresa": null, "sigla": "IBL"}, {"tipo": "Interni", "denominazione": "Appartamento Bolchini, Milano, 1933-34 ", "longitude": 9.186516, "tipo2": "Interni", "address": "Milano", "latitude": 45.4654542, "descrizione_prog": null, "id": 83, "impresa": null, "sigla": "IBO"}, {"tipo": "Interni", "denominazione": "Breda (grattacielo), Milano, 1955-56", "longitude": 9.186516, "tipo2": "Interni", "address": "Milano", "latitude": 45.4654542, "descrizione_prog": null, "id": 84, "impresa": null, "sigla": "IBR"}, {"tipo": "Interni", "denominazione": "Progetto Banca di Trento e Bolzano, Trento, 1949-50", "longitude": 11.1210886, "tipo2": "Interni", "address": "Trento", "latitude": 46.0696924, "descrizione_prog": null, "id": 85, "impresa": null, "sigla": "IBT"}, {"tipo": "Interni", "denominazione": "Progetto Bar Canova, Milano, 1934", "longitude": 9.190766, "tipo2": "Interni", "address": "Milano - via Ugo Foscolo 3", "latitude": 45.4655425, "descrizione_prog": null, "id": 86, "impresa": null, "sigla": "IC"}, {"tipo": "Interni", "denominazione": "Camera di Commercio, Trento, 1960-61", "longitude": 11.1229522, "tipo2": "Interni", "address": "Trento - via Calepina 13", "latitude": 46.0668581, "descrizione_prog": null, "id": 87, "impresa": null, "sigla": "ICC"}, {"tipo": "Interni", "denominazione": "Credito Fondiario, Trento, 1960 ", "longitude": 11.1226111, "tipo2": "Interni", "address": "Trento - via Calepina 1", "latitude": 46.06682439999999, "descrizione_prog": null, "id": 88, "impresa": null, "sigla": "ICF"}, {"tipo": "Interni", "denominazione": "Appartamento Cagol, Rovereto, 1956-57", "longitude": 11.0401399, "tipo2": "Interni", "address": "Rovereto (TN)", "latitude": 45.89096, "descrizione_prog": null, "id": 89, "impresa": null, "sigla": "ICG"}, {"tipo": "Interni", "denominazione": "Calzaturificio di Varese, Milano, 1929-33 ", "longitude": 9.1981925, "tipo2": "Interni", "address": "Milano - via Durini/corso Vittorio Emanuele", "latitude": 45.4647648, "descrizione_prog": null, "id": 90, "impresa": null, "sigla": "ICV"}, {"tipo": "Interni", "denominazione": "Appartamento Avv. Dieci, Milano, 1969-70", "longitude": 9.2251151, "tipo2": "Interni", "address": "Milano - via Longhi 10", "latitude": 45.4614574, "descrizione_prog": null, "id": 91, "impresa": null, "sigla": "ID"}, {"tipo": "Interni", "denominazione": "Appartamento De Angeli Frua, Milano, 1933-35", "longitude": 9.150274, "tipo2": "Interni", "address": "Milano - Piazzetta De Angeli 3", "latitude": 45.4661424, "descrizione_prog": null, "id": 92, "impresa": null, "sigla": "IDF"}, {"tipo": "Interni", "denominazione": "Laboratorio Fontana, Milano, 1968 ", "longitude": 9.1896912, "tipo2": "Interni", "address": "Milano - Corso di Porta Romana 6", "latitude": 45.459724, "descrizione_prog": null, "id": 93, "impresa": null, "sigla": "IF"}, {"tipo": "Interni", "denominazione": "Appartamento/studio a Parigi, 1937", "longitude": 2.3341997, "tipo2": "Interni", "address": "Paris - rue du Belvedere, oppure Impasse Nansouty 9 (XIV) casa progettata da A. Perret", "latitude": 48.8217167, "descrizione_prog": null, "id": 94, "impresa": null, "sigla": "IFP"}, {"tipo": "Interni", "denominazione": "Negozio Galtrucco, Milano, 1938 ", "longitude": 9.190021999999999, "tipo2": "Interni", "address": "Milano - Piazza Duomo", "latitude": 45.4646878, "descrizione_prog": null, "id": 95, "impresa": null, "sigla": "IG"}, {"tipo": "Interni", "denominazione": "Negozio Hass, Milano, 1937", "longitude": 9.194511199999999, "tipo2": "Interni", "address": "Via Pietro Verri, 20121 Milano, Italia", "latitude": 45.46769219999999, "descrizione_prog": null, "id": 96, "impresa": null, "sigla": "IH"}, {"tipo": "Interni", "denominazione": "Negozio per esposizioni Leoni, Locarno, 1970", "longitude": 8.7965506, "tipo2": "Interni", "address": "Locarno (Svizzera) - Via A. Ciseri 19", "latitude": 46.16865629999999, "descrizione_prog": null, "id": 97, "impresa": null, "sigla": "IL"}, {"tipo": "Interni", "denominazione": "Parrucchiere Manfredini, Milano, 1956 ", "longitude": 0.0, "tipo2": "Interni", "address": "Via Filippo Turati, 56, 20121 Milano, Italia", "latitude": 0.0, "descrizione_prog": null, "id": 98, "impresa": null, "sigla": "IM"}, {"tipo": "Interni", "denominazione": "Appartamento Mariani, Milano, 1936", "longitude": 9.1806868, "tipo2": "Interni", "address": "Milano - via Circo 3", "latitude": 45.46151829999999, "descrizione_prog": null, "id": 99, "impresa": null, "sigla": "IMR"}, {"tipo": "Interni", "denominazione": "Appartamento Masini, Milano, 1955-56", "longitude": 9.186516, "tipo2": "Interni", "address": "Milano", "latitude": 45.4654542, "descrizione_prog": null, "id": 100, "impresa": null, "sigla": "IMS"}, {"tipo": "Interni", "denominazione": "Panfilo \"La Madonnina\", Voltri, 1937-38", "longitude": 8.693068499999999, "tipo2": "Interni", "address": "Voltri (GE) - Cantiere navale Costaguta", "latitude": 44.4540365, "descrizione_prog": null, "id": 101, "impresa": null, "sigla": "IP"}, {"tipo": "Interni", "denominazione": "Progetto Pinacoteca Castello Sforzesco, Milano, 1933-35  ", "longitude": 9.180460700000001, "tipo2": "Interni", "address": "Milano - Piazza Castello", "latitude": 45.47186749999999, "descrizione_prog": null, "id": 102, "impresa": null, "sigla": "IPC"}, {"tipo": "Interni", "denominazione": "Appartamento in via San Pietro all'Orto, Milano, 1938", "longitude": 9.1952133, "tipo2": "Interni", "address": "Milano - via San Pietro all'Orto", "latitude": 45.4669155, "descrizione_prog": null, "id": 103, "impresa": null, "sigla": "IPO"}, {"tipo": "Interni", "denominazione": "Appartamento Perin, Rovereto, 1933", "longitude": 11.0401399, "tipo2": "Interni", "address": "Rovereto (TN)", "latitude": 45.89096, "descrizione_prog": null, "id": 104, "impresa": null, "sigla": "IPR"}, {"tipo": "Interni", "denominazione": "Appartamento Panzeri, Vasto, 1968", "longitude": 14.6937674, "tipo2": "Interni", "address": "Vasto (CH)", "latitude": 42.11886980000001, "descrizione_prog": null, "id": 105, "impresa": null, "sigla": "IPZ"}, {"tipo": "Interni", "denominazione": "Bar Rossi, Milano, 1932", "longitude": 9.1950525, "tipo2": "Interni", "address": "Corso Vittorio Emanuele II, 20122 Milano, Italia", "latitude": 45.4652803, "descrizione_prog": null, "id": 106, "impresa": null, "sigla": "IR"}, {"tipo": "Interni", "denominazione": "Appartamento Russoli, Milano, 1958", "longitude": 9.191237500000002, "tipo2": "Interni", "address": "Milano - via Rastrelli 5", "latitude": 45.4623002, "descrizione_prog": null, "id": 107, "impresa": null, "sigla": "IRS"}, {"tipo": "Interni", "denominazione": "Progetto negozio Sartotecnica, Milano, 1933", "longitude": 9.186403499999999, "tipo2": "Interni", "address": "Milano - Piazza Cordusio", "latitude": 45.4650511, "descrizione_prog": null, "id": 108, "impresa": null, "sigla": "IS"}, {"tipo": "Interni", "denominazione": "Studio per Collezionista, Milano, 1930, 1932 ", "longitude": 9.2111477, "tipo2": "Interni", "address": "Milano - via C. Pisacane 35", "latitude": 45.4720155, "descrizione_prog": null, "id": 109, "impresa": null, "sigla": "ISC"}, {"tipo": "Interni", "denominazione": "Appartamento Seppi, Trento, 1961 ", "longitude": 11.1210886, "tipo2": "Interni", "address": "Trento", "latitude": 46.0696924, "descrizione_prog": null, "id": 110, "impresa": null, "sigla": "ISE"}, {"tipo": "Interni", "denominazione": "Appartamento Sigurt\u00e0, Milano, 1933-34", "longitude": 9.1694248, "tipo2": "Interni", "address": "Milano - via A. Sangiorgio 9", "latitude": 45.4757744, "descrizione_prog": null, "id": 111, "impresa": null, "sigla": "ISG"}, {"tipo": "Interni", "denominazione": "Appartamento Spadacini, Milano, 1932", "longitude": 9.202566299999999, "tipo2": "Interni", "address": "Milano - via Mozart 15", "latitude": 45.4692243, "descrizione_prog": null, "id": 112, "impresa": null, "sigla": "ISM"}, {"tipo": "Interni", "denominazione": "Appartamento via Senato, Milano, 1956", "longitude": 9.1972103, "tipo2": "Interni", "address": "Milano - via Senato 17", "latitude": 45.4705529, "descrizione_prog": null, "id": 113, "impresa": null, "sigla": "ISN"}, {"tipo": "Interni", "denominazione": "Appartamento Spadacini, Milano, 1979", "longitude": 9.209486799999999, "tipo2": "Interni", "address": "Milano - via Pancaldo 1/3", "latitude": 45.4757697, "descrizione_prog": null, "id": 114, "impresa": null, "sigla": "ISP"}, {"tipo": "Interni", "denominazione": "Appartamento Spadacini, St-Moritz, 1971", "longitude": 9.8338102, "tipo2": "Interni", "address": "St. Moritz (Svizzera) - via Tinus mapp. 106 (costruzione Olon S.A.)", "latitude": 46.5016658, "descrizione_prog": null, "id": 115, "impresa": null, "sigla": "ISS"}, {"tipo": "Interni", "denominazione": "Progetto Salone d'Onore, VI Triennale di Milano, 1936", "longitude": 9.1734204, "tipo2": "Interni", "address": "Milano - Palazzo dell'Arte al Parco Esposizione Internazionale delle Arti decorative e Industriali moderne e dell'Architettura moderna", "latitude": 45.47179670000001, "descrizione_prog": null, "id": 116, "impresa": null, "sigla": "IT6"}, {"tipo": "Interni", "denominazione": "Negozio Ultimoda D.A.F., Milano, 1935-36 ", "longitude": 9.1907953, "tipo2": "Interni", "address": "Milano - via Ugo Foscolo 2", "latitude": 45.4649873, "descrizione_prog": null, "id": 117, "impresa": null, "sigla": "IU"}, {"tipo": "Interni", "denominazione": "Villa Leonardi, Rovereto, 1972-73", "longitude": 11.0463177, "tipo2": "Interni", "address": "Rovereto (TN) - Viale dei Colli 16", "latitude": 45.89156209999999, "descrizione_prog": null, "id": 118, "impresa": null, "sigla": "IVL"}, {"tipo": "Architettura/Monumenti", "denominazione": "Progetto Monumenti Allegorici, Santo Domingo, 1955", "longitude": -69.9833333, "tipo2": "Monumenti e spazi urbani ", "address": "Santo Domingo (Repubblica Domenicana)", "latitude": 18.5, "descrizione_prog": null, "id": 119, "impresa": null, "sigla": "MAL"}, {"tipo": "Architettura/Monumenti", "denominazione": "Progetto Campana dei Caduti, Rovereto, 1961-63, 1964 ", "longitude": 11.0401399, "tipo2": "Monumenti e spazi urbani ", "address": "Rovereto (TN)", "latitude": 45.89096, "descrizione_prog": null, "id": 120, "impresa": null, "sigla": "MCC"}, {"tipo": "Architettura/Monumenti", "denominazione": "Progetto Fantana del Risparmio, Milano, 1961-62", "longitude": 9.1875847, "tipo2": "Monumenti e spazi urbani ", "address": "Milano - Piazza Garibaldi", "latitude": 45.48503160000001, "descrizione_prog": null, "id": 121, "impresa": null, "sigla": "MFR"}, {"tipo": "Architettura/Monumenti", "denominazione": "Progetto Fontana Triennale, Milano, 1957 ", "longitude": 9.173803, "tipo2": "Monumenti e spazi urbani ", "address": "Milano - Parco Sempione", "latitude": 45.472305, "descrizione_prog": null, "id": 122, "impresa": null, "sigla": "MFT"}, {"tipo": "Architettura/Monumenti", "denominazione": "Progetto Monumento \"Generale Roca\", Buenos-Aires, 1936", "longitude": -58.3815931, "tipo2": "Monumenti e spazi urbani ", "address": "Buenos Aires (Argentina)", "latitude": -34.6037232, "descrizione_prog": null, "id": 123, "impresa": null, "sigla": "MGR"}, {"tipo": "Architettura/Padiglioni", "denominazione": "Progetto Padiglione Breda, Fiera del Levante, Bari, 1963 ", "longitude": 16.844796, "tipo2": "Padiglioni per esposizioni", "address": "Bari - Fiera del Levante", "latitude": 41.1363884, "descrizione_prog": null, "id": 124, "impresa": null, "sigla": "PBB"}, {"tipo": "Architettura/Padiglioni", "denominazione": "Padiglione Breda, Fiera Internazionale di Milano, 1951  ", "longitude": 9.1605538, "tipo2": "Padiglioni per esposizioni", "address": "Milano - Fiera Internazionale", "latitude": 45.4805467, "descrizione_prog": null, "id": 125, "impresa": null, "sigla": "PB1"}, {"tipo": null, "denominazione": "Padiglione Breda, Fiera Internazionale di Milano, 1952  ", "longitude": 9.1605538, "tipo2": null, "address": "Milano - Fiera Internazionale", "latitude": 45.4805467, "descrizione_prog": null, "id": 126, "impresa": null, "sigla": "PB2"}, {"tipo": null, "denominazione": "Padiglione Breda, Fiera Internazionale di Milano, 1953 ", "longitude": 9.1605538, "tipo2": null, "address": "Milano - Fiera Internazionale", "latitude": 45.4805467, "descrizione_prog": null, "id": 127, "impresa": null, "sigla": "PB3"}, {"tipo": null, "denominazione": "Padiglione Breda, Fiera Internazionale di Milano, 1954 ", "longitude": 9.1605538, "tipo2": null, "address": "Milano - Fiera Internazionale", "latitude": 45.4805467, "descrizione_prog": null, "id": 128, "impresa": null, "sigla": "PB4"}, {"tipo": null, "denominazione": "Padiglione Breda, Fiera Internazionale di Milano, 1955 ", "longitude": 9.1605538, "tipo2": null, "address": "Milano - Fiera Internazionale", "latitude": 45.4805467, "descrizione_prog": null, "id": 129, "impresa": null, "sigla": "PB5"}, {"tipo": null, "denominazione": "Padiglione Breda, Fiera Internazionale di Milano, 1956  ", "longitude": 9.1605538, "tipo2": null, "address": "Milano - Fiera Internazionale", "latitude": 45.4805467, "descrizione_prog": null, "id": 130, "impresa": null, "sigla": "PB6"}, {"tipo": null, "denominazione": "Padiglione Breda, Fiera Internazionale di Milano, 1957  ", "longitude": 9.1605538, "tipo2": null, "address": "Milano - Fiera Internazionale", "latitude": 45.4805467, "descrizione_prog": null, "id": 131, "impresa": null, "sigla": "PB7"}, {"tipo": null, "denominazione": "Padiglione Breda, Fiera Internazionale di Milano, 1958 ", "longitude": 9.1605538, "tipo2": null, "address": "Milano - Fiera Internazionale", "latitude": 45.4805467, "descrizione_prog": null, "id": 132, "impresa": null, "sigla": "PB8"}, {"tipo": null, "denominazione": "Padiglione Breda, Fiera Internazionale di Milano, 1959 ", "longitude": 9.1605538, "tipo2": null, "address": "Milano - Fiera Internazionale", "latitude": 45.4805467, "descrizione_prog": null, "id": 133, "impresa": null, "sigla": "PB9"}, {"tipo": "Architettura/Padiglioni", "denominazione": "Padiglione D.A.F., Fiera Internazionale di Milano, 1936", "longitude": 9.1605538, "tipo2": "Padiglioni per esposizioni", "address": "Milano - Fiera Internazionale", "latitude": 45.4805467, "descrizione_prog": null, "id": 134, "impresa": null, "sigla": "PD"}, {"tipo": "Architettura/Padiglioni", "denominazione": "Progetto Padiglioni Fiera, Fiera Internazionale di Milano, 1957-58", "longitude": 9.1605538, "tipo2": "Padiglioni per esposizioni", "address": "Milano - Fiera Internazionale (Porta Giulio Cesare - Porta Meccanica)", "latitude": 45.4805467, "descrizione_prog": null, "id": 135, "impresa": null, "sigla": "PF"}, {"tipo": "Architettura/Padiglioni", "denominazione": "Padiglioni I.L.V.A., Fiera di Terni, 1960", "longitude": 12.6426604, "tipo2": "Padiglioni per esposizioni", "address": "Terni - Fiera", "latitude": 42.5636168, "descrizione_prog": null, "id": 136, "impresa": null, "sigla": "PIL"}, {"tipo": "Architettura/Padiglioni", "denominazione": "Padiglione Italsider, Fiera Internazionale di Milano, 1966 ", "longitude": 9.1605538, "tipo2": "Padiglioni per esposizioni", "address": "Milano - Fiera Internazionale", "latitude": 45.4805467, "descrizione_prog": null, "id": 137, "impresa": null, "sigla": "PIT"}, {"tipo": "Architettura/Padiglioni", "denominazione": "Padiglione Ortofrutticolo-Vinicolo, Expo di Bruxelles, 1935", "longitude": 4.3414128, "tipo2": "Padiglioni per esposizioni", "address": "Bruxelles (Belgio) - Esposizione Internazionale", "latitude": 50.8949468, "descrizione_prog": null, "id": 138, "impresa": null, "sigla": "POV"}, {"tipo": "Architettura/Padiglioni", "denominazione": "Padiglioni Sidercomit, Fiera Internazionale di Milano, 1953-54, 1956-59, 1961", "longitude": 9.1605538, "tipo2": "Padiglioni per esposizioni", "address": "Milano - Fiera Internazionale", "latitude": 45.4805467, "descrizione_prog": null, "id": 139, "impresa": null, "sigla": "PS"}, {"tipo": "Architettura/Padiglioni", "denominazione": "Padiglione della Stampa, V Triennale di Milano, 1933 ", "longitude": 9.1734204, "tipo2": "Padiglioni per esposizioni", "address": "Milano - Palazzo dell'Arte - Esposizione Internazionale delle Arti decorative e industriali moderne e dell'Architettura moderna", "latitude": 45.47179670000001, "descrizione_prog": null, "id": 140, "impresa": null, "sigla": "PT5"}, {"tipo": "Architettura/Padiglioni", "denominazione": "Progetto Tribuna Presidenziale, Fiera Internazionale di Milano, 1959-60", "longitude": 9.1605538, "tipo2": "Padiglioni per esposizioni", "address": "Milano - Fiera Internazionale", "latitude": 45.4805467, "descrizione_prog": null, "id": 141, "impresa": null, "sigla": "PTP"}, {"tipo": "Architettura/Padiglioni", "denominazione": "Padiglione Vesta, Fiera Internazionale di Milano, 1933", "longitude": 9.1605538, "tipo2": "Padiglioni per esposizioni", "address": "Milano - Fiera Internazionale", "latitude": 45.4805467, "descrizione_prog": null, "id": 142, "impresa": null, "sigla": "PV"}, {"tipo": "Architettura/Padiglioni", "denominazione": "Progetto Viale Editoria, Fiera Internazionale di Milano, 1959-60", "longitude": 9.1605538, "tipo2": "Padiglioni per esposizioni", "address": "Milano - Fiera Internazionale", "latitude": 45.4805467, "descrizione_prog": null, "id": 143, "impresa": null, "sigla": "PVE"}, {"tipo": "Architettura/Tombe", "denominazione": "Tomba Bonfanti, Milano, 1973-74", "longitude": 9.1210405, "tipo2": "Edifici per il culto e tombe", "address": "Milano - Cimitero Maggiore", "latitude": 45.5025683, "descrizione_prog": null, "id": 144, "impresa": null, "sigla": "TB"}, {"tipo": "Architettura/Tombe", "denominazione": "Tomba Cairoli, Giubiano, 1978-79", "longitude": 8.8352772, "tipo2": "Edifici per il culto e tombe", "address": "Giubiano (VA)", "latitude": 45.8148034, "descrizione_prog": null, "id": 145, "impresa": null, "sigla": "TC"}, {"tipo": "Architettura/Tombe", "denominazione": "Tomba Dina Baldessari, Rovereto, 1956", "longitude": 11.0401399, "tipo2": "Edifici per il culto e tombe", "address": "Rovereto (TN)", "latitude": 45.89096, "descrizione_prog": null, "id": 146, "impresa": null, "sigla": "TDB"}, {"tipo": "Architettura/Tombe", "denominazione": "Tomba Mariani-Clary, Eupilio, 1956", "longitude": 9.2642612, "tipo2": "Edifici per il culto e tombe", "address": "Eupilio (CO) - Frazione Carella", "latitude": 45.8159584, "descrizione_prog": null, "id": 148, "impresa": null, "sigla": "TMC"}, {"tipo": "Architettura/Tombe", "denominazione": "Tomba Mariani-Malacrida, Erba, 1936", "longitude": 9.2642612, "tipo2": "Edifici per il culto e tombe", "address": "Erba (CO) - Frazione Carella", "latitude": 45.8159584, "descrizione_prog": null, "id": 149, "impresa": null, "sigla": "TMM"}, {"tipo": "Architettura/Tombe", "denominazione": "Tomba Rasini, Campo, 1938-40", "longitude": 10.915983, "tipo2": "Edifici per il culto e tombe", "address": "Campo (TN)", "latitude": 45.798143, "descrizione_prog": null, "id": 150, "impresa": null, "sigla": "TR"}, {"tipo": "Architettura/Tombe", "denominazione": "Tomba Segale, Milano, 1968", "longitude": 9.1795568, "tipo2": "Edifici per il culto e tombe", "address": "Milano - Cimitero Monumentale", "latitude": 45.4851275, "descrizione_prog": null, "id": 151, "impresa": null, "sigla": "TS"}, {"tipo": "Architettura/Tombe", "denominazione": "Tomba Suore, Rovereto, 1938 ", "longitude": 11.0401399, "tipo2": "Edifici per il culto e tombe", "address": "Rovereto (TN)", "latitude": 45.89096, "descrizione_prog": null, "id": 152, "impresa": null, "sigla": "TSR"}, {"tipo": "Urbanistica", "denominazione": "Progetto Circeo, Roma, 1933-35", "longitude": 12.5397296, "tipo2": "Quartieri e piani", "address": "Roma - localit\u00e0 Circeo", "latitude": 41.9433456, "descrizione_prog": null, "id": 153, "impresa": null, "sigla": "UC"}, {"tipo": "Urbanistica", "denominazione": "Progetto Citt\u00e0 Cinematografica, Milano, 1932-33", "longitude": 9.125183, "tipo2": "Quartieri e piani", "address": "Milano - vie Inganni, Lorenteggio, Chinotto", "latitude": 45.4510964, "descrizione_prog": null, "id": 154, "impresa": null, "sigla": "UCC"}, {"tipo": "Urbanistica", "denominazione": "Progetto Quartiere Campo dei Fiori, Milano, 1962-63, 1967-68 ", "longitude": 9.186516, "tipo2": "Quartieri e piani", "address": "Milano", "latitude": 45.4654542, "descrizione_prog": null, "id": 155, "impresa": null, "sigla": "UCF"}, {"tipo": "Urbanistica", "denominazione": "Progetto Cornaredo, 1966-68 ", "longitude": 8.968542, "tipo2": "Quartieri e piani", "address": "Cornaredo (MI) - Statale 11/via Garibaldi", "latitude": 45.486703, "descrizione_prog": null, "id": 156, "impresa": null, "sigla": "UCO"}, {"tipo": "Urbanistica", "denominazione": "Quartiere Canegrate Sud, Canegrate, 1963-64 ", "longitude": 8.9242729, "tipo2": "Quartieri e piani", "address": "Canegrate Sud (MI)", "latitude": 45.5658897, "descrizione_prog": null, "id": 157, "impresa": null, "sigla": "UCS"}, {"tipo": "Urbanistica", "denominazione": "Progetto Corso Venezia, Milano, 1938-39", "longitude": 9.2010583, "tipo2": "Quartieri e piani", "address": "Milano - Corso Venezia", "latitude": 45.4706215, "descrizione_prog": null, "id": 158, "impresa": null, "sigla": "UCV"}, {"tipo": "Urbanistica", "denominazione": "Quartiere Feltre, Milano, 1957-61, Milano, 1957-61 ", "longitude": 9.2427112, "tipo2": "Quartieri e piani", "address": "Milano - via Feltre", "latitude": 45.49127619999999, "descrizione_prog": null, "id": 159, "impresa": null, "sigla": "UF"}, {"tipo": "Urbanistica", "denominazione": "Quartiere Forlanini, Milano,  1960-62", "longitude": 9.2523746, "tipo2": "Quartieri e piani", "address": "Milano - viale Forlanini", "latitude": 45.46202479999999, "descrizione_prog": null, "id": 160, "impresa": null, "sigla": "UFN"}, {"tipo": "Urbanistica", "denominazione": "Progetto Villaggio Navach, Campo Elba, 1964", "longitude": 10.2349299, "tipo2": "Quartieri e piani", "address": "Campo Elba (LI)", "latitude": 42.7486833, "descrizione_prog": null, "id": 161, "impresa": null, "sigla": "UN"}, {"tipo": "Urbanistica", "denominazione": "Progetto Lottizzazione Riazzino, Locarno, 1971-72", "longitude": 8.8971378, "tipo2": "Quartieri e piani", "address": "Riazzino - Locarno (Svizzera) a Nord della Strada Comunale Locarno/Bellinzona", "latitude": 46.1746352, "descrizione_prog": null, "id": 162, "impresa": null, "sigla": "UR"}, {"tipo": "Urbanistica", "denominazione": "Progetto Rovereto, 1960 ", "longitude": 11.0390078, "tipo2": "Quartieri e piani", "address": "Rovereto (TN) - corso Rosmini e via Paganini", "latitude": 45.8909429, "descrizione_prog": null, "id": 163, "impresa": null, "sigla": "URO"}, {"tipo": "Urbanistica", "denominazione": "Progetto San Babila, Milano, 1936-37", "longitude": 9.1973951, "tipo2": "Quartieri e piani", "address": "Milano - Piazza San Babila", "latitude": 45.4664154, "descrizione_prog": null, "id": 164, "impresa": null, "sigla": "USB"}, {"tipo": "Urbanistica", "denominazione": "Progetto Santa Margherita Ligure, 1948-50", "longitude": 9.2136594, "tipo2": "Quartieri e piani", "address": "Santa Margherita Ligure (GE)", "latitude": 44.3345737, "descrizione_prog": null, "id": 165, "impresa": null, "sigla": "USM"}, {"tipo": "Urbanistica", "denominazione": "Progetto Quartiere Tibaldi, Milano, 1961", "longitude": 9.044979999999999, "tipo2": "Quartieri e piani", "address": "Milano - via Tibaldi", "latitude": 45.5300238, "descrizione_prog": null, "id": 166, "impresa": null, "sigla": "UT"}, {"tipo": "Architettura/Ville", "denominazione": "Villa Archidea, Orselina, Locarno, 1968-69", "longitude": 8.799999999999999, "tipo2": "Abitazioni e condomini ", "address": "Orselina - Locarno (Svizzera)", "latitude": 46.1833333, "descrizione_prog": null, "id": 167, "impresa": null, "sigla": "VA"}, {"tipo": "Architettura/Ville", "denominazione": "Progetto Villa alla Giudecca, Venezia, 1936-37", "longitude": 12.321629, "tipo2": "Abitazioni e condomini ", "address": "Venezia - La Giudecca", "latitude": 45.4259204, "descrizione_prog": null, "id": 168, "impresa": null, "sigla": "VH"}, {"tipo": "Architettura/Ville", "denominazione": "Progetto Villa Kauffungen, Brione, Locarno, 1981-82", "longitude": 8.7904682, "tipo2": "Abitazioni e condomini ", "address": "Brione - Locarno (Svizzera)", "latitude": 46.2963928, "descrizione_prog": null, "id": 169, "impresa": null, "sigla": "VK"}, {"tipo": "Architettura/Ville", "denominazione": "Complesso di Villa Letizia, Caravate, 1962-64, 1964-66, 1968 ", "longitude": 8.6481809, "tipo2": "Abitazioni e condomini ", "address": "Caravate (VA)", "latitude": 45.8755043, "descrizione_prog": null, "id": 170, "impresa": null, "sigla": "VL"}, {"tipo": "Architettura/Ville", "denominazione": "Progetto Villa Metzger, Cannero, 1967, 1968-69", "longitude": 9.183164999999999, "tipo2": "Abitazioni e condomini ", "address": "Cannero (MI)", "latitude": 45.5050782, "descrizione_prog": null, "id": 171, "impresa": null, "sigla": "VM"}, {"tipo": "Architettura/Ville", "denominazione": "Villa Maria Pia, Roma, 1950-52, 1959, 1969", "longitude": 12.4809055, "tipo2": "Abitazioni e condomini ", "address": "Roma - via del Foro Trionfale 36", "latitude": 41.9402651, "descrizione_prog": null, "id": 172, "impresa": null, "sigla": "VMP"}, {"tipo": "Architettura/Ville", "denominazione": "Progetto Villa Masini, Merate, 1960", "longitude": 9.4193862, "tipo2": "Abitazioni e condomini ", "address": "Merate (CO)", "latitude": 45.7010137, "descrizione_prog": null, "id": 173, "impresa": null, "sigla": "VMS"}, {"tipo": "Architettura/Ville", "denominazione": "Progetto Villa Meyerhofer, Intra, 1955", "longitude": 8.574892, "tipo2": "Abitazioni e condomini ", "address": "Intra (NO)", "latitude": 45.942745, "descrizione_prog": null, "id": 174, "impresa": null, "sigla": "VMY"}, {"tipo": "Architettura/Ville", "denominazione": "Progetto Villa Pozzali, Lodi, 1958-59", "longitude": -83.8260884, "tipo2": "Abitazioni e condomini ", "address": "Lodi (MI)", "latitude": 42.2082681, "descrizione_prog": null, "id": 175, "impresa": null, "sigla": "VP"}, {"tipo": "Architettura/Ville", "denominazione": "Ex scuderia di Villa Puricelli, Lomnago, 1973-74  ", "longitude": 8.7477793, "tipo2": "Abitazioni e condomini ", "address": "Lomnago (VA)", "latitude": 45.7905273, "descrizione_prog": null, "id": 176, "impresa": null, "sigla": "VPR"}, {"tipo": "Architettura/Ville", "denominazione": "Progetto Villa a Madonna di Campiglio, 1938-39", "longitude": 10.827885, "tipo2": "Abitazioni e condomini ", "address": "Campiglio (TN)", "latitude": 46.230343, "descrizione_prog": null, "id": 177, "impresa": null, "sigla": "VSC"}, {"tipo": "Architettura/Ville", "denominazione": "Progetto Villa a Sal\u00f2, 1938-39", "longitude": 10.527769, "tipo2": "Abitazioni e condomini ", "address": "Sal\u00f2 (BS)", "latitude": 45.6114249, "descrizione_prog": null, "id": 178, "impresa": null, "sigla": "VSS"}, {"tipo": "Architettura/Ville", "denominazione": "Progetto Villa Ved\u00f9, Merate, 1968-69 ", "longitude": 9.4193862, "tipo2": "Abitazioni e condomini ", "address": "Merate (CO)", "latitude": 45.7010137, "descrizione_prog": null, "id": 179, "impresa": null, "sigla": "VV"}, {"tipo": "Architettura/Edifici pubblici", "denominazione": "Club \"Emilio Pensuti\", Taliedo, 1935", "longitude": 9.2476874, "tipo2": "Edifici e impianti sportivi, ricreativi e ricettivi", "address": "Taliedo (MI)", "latitude": 45.4438465, "descrizione_prog": null, "id": 180, "impresa": null, "sigla": "ECP"}, {"tipo": null, "denominazione": "Mostra Mosaico Oggi, Milano, 1980", "longitude": 9.186516, "tipo2": null, "address": "Milano", "latitude": 45.4654542, "descrizione_prog": null, "id": 192, "impresa": null, "sigla": "AMO"}]
